[
  { "id": "41001", "name": "East Hatteras", "lat": 34.791, "lon": -72.42, "type": "buoy" },
  { "id": "41002", "name": "South Hatteras", "lat": 31.743, "lon": -74.955, "type": "buoy" },
  { "id": "41004", "name": "Edisto", "lat": 32.502, "lon": -79.099, "type": "buoy" },
  { "id": "41008", "name": "Grays Reef", "lat": 31.4, "lon": -80.866, "type": "buoy" },
  { "id": "41009", "name": "Canaveral", "lat": 28.508, "lon": -80.185, "type": "buoy" },
  { "id": "41010", "name": "Canaveral East", "lat": 32.6403, "lon": -37.9133, "type": "buoy" },
  { "id": "41013", "name": "Frying Pan Shoals", "lat": 33.441, "lon": -77.764, "type": "buoy" },
  { "id": "41024", "name": "Sunset Nearshore NC", "lat": 33.837, "lon": -78.477, "type": "buoy" },
  { "id": "41025", "name": "Diamond Shoals NC", "lat": 35.026, "lon": -75.38, "type": "buoy" },
  { "id": "41029", "name": "Capers Nearshore SC", "lat": 32.803, "lon": -79.624, "type": "buoy" },
  { "id": "41033", "name": "Fripp Nearshore SC", "lat": 32.279, "lon": -80.406, "type": "buoy" },
  { "id": "41037", "name": "Wrightsville Beach Offshore NC", "lat": 33.988, "lon": -77.362, "type": "buoy" },
  { "id": "41038", "name": "Wrightsville Beach Nearshore NC", "lat": 34.141, "lon": -77.715, "type": "buoy" },
  { "id": "41040", "name": "North Equatorial One", "lat": 14.536, "lon": -53.136, "type": "buoy" },
  { "id": "41041", "name": "North Equatorial Two", "lat": 14.453, "lon": -46.327, "type": "buoy" },
  { "id": "41043", "name": "NE Puerto Rico", "lat": 21.09, "lon": -64.864, "type": "buoy" },
  { "id": "41044", "name": "NE St Martin", "lat": 21.582, "lon": -58.63, "type": "buoy" },
  { "id": "41046", "name": "East Bahamas", "lat": 23.84, "lon": -68.34, "type": "buoy" },
  { "id": "41047", "name": "NE Bahamas", "lat": 27.557, "lon": -71.48, "type": "buoy" },
  { "id": "41048", "name": "West Bermuda", "lat": 31.831, "lon": -69.573, "type": "buoy" },
  { "id": "41049", "name": "South Bermuda", "lat": 27.505, "lon": -62.271, "type": "buoy" },
  { "id": "41052", "name": "South of St John VI", "lat": 18.249, "lon": -64.763, "type": "buoy" },
  { "id": "41053", "name": "San Juan PR", "lat": 18.474, "lon": -66.099, "type": "buoy" },
  { "id": "41056", "name": "Vieques Island PR", "lat": 18.261, "lon": -65.464, "type": "buoy" },
  { "id": "41058", "name": "North of St Thomas VI", "lat": 18.476, "lon": -65.157, "type": "buoy" },
  { "id": "41064", "name": "Onslow Bay Outer NC", "lat": 34.207, "lon": -76.949, "type": "buoy" },
  { "id": "41065", "name": "Capers Nearshore Waves SC", "lat": 32.802, "lon": -79.619, "type": "buoy" },
  { "id": "41068", "name": "Fort Pierce FL", "lat": 27.593, "lon": -80.189, "type": "buoy" },
  { "id": "41069", "name": "Ponce de Leon Inlet FL", "lat": 29.289, "lon": -80.803, "type": "buoy" },
  { "id": "41082", "name": "OOI Pioneer Central", "lat": 35.95, "lon": -75.125, "type": "buoy" },
  { "id": "41083", "name": "OOI Pioneer Southern", "lat": 35.725, "lon": -74.853, "type": "buoy" },
  { "id": "41108", "name": "Wilmington Harbor NC", "lat": 33.719, "lon": -78.016, "type": "buoy" },
  { "id": "41110", "name": "Masonboro Inlet NC", "lat": 34.142, "lon": -77.715, "type": "buoy" },
  { "id": "41112", "name": "Offshore Fernandina Beach FL", "lat": 30.709, "lon": -81.292, "type": "buoy" },
  { "id": "41113", "name": "Cape Canaveral Nearshore FL", "lat": 28.4, "lon": -80.533, "type": "buoy" },
  { "id": "41114", "name": "Fort Pierce FL Nearshore", "lat": 27.552, "lon": -80.216, "type": "buoy" },
  { "id": "41115", "name": "Rincon Puerto Rico", "lat": 18.376, "lon": -67.28, "type": "buoy" },
  { "id": "41117", "name": "St Augustine FL", "lat": 29.999, "lon": -81.079, "type": "buoy" },
  { "id": "41120", "name": "Cape Hatteras East NC", "lat": 35.258, "lon": -75.285, "type": "buoy" },
  { "id": "41121", "name": "Arecibo Puerto Rico", "lat": 18.49, "lon": -66.701, "type": "buoy" },
  { "id": "41122", "name": "Hollywood Beach FL", "lat": 26.001, "lon": -80.096, "type": "buoy" },
  { "id": "41159", "name": "Onslow Bay Outer NC 217", "lat": 34.211, "lon": -76.944, "type": "buoy" },
  { "id": "42001", "name": "Mid Gulf", "lat": 25.926, "lon": -89.662, "type": "buoy" },
  { "id": "42002", "name": "West Gulf", "lat": 25.95, "lon": -93.78, "type": "buoy" },
  { "id": "42003", "name": "East Gulf", "lat": 25.925, "lon": -85.616, "type": "buoy" },
  { "id": "42012", "name": "Orange Beach", "lat": 30.06, "lon": -87.548, "type": "buoy" },
  { "id": "42013", "name": "WFS Central 25m", "lat": 27.173, "lon": -82.924, "type": "buoy" },
  { "id": "42019", "name": "Freeport TX", "lat": 28.0636, "lon": -95.6709, "type": "buoy" },
  { "id": "42020", "name": "Corpus Christi TX", "lat": 25.97, "lon": -96.679, "type": "buoy" },
  { "id": "42022", "name": "WFS Central 50m", "lat": 27.505, "lon": -83.741, "type": "buoy" },
  { "id": "42023", "name": "WFS South 50m", "lat": 26.01, "lon": -83.086, "type": "buoy" },
  { "id": "42036", "name": "West Tampa", "lat": 28.5, "lon": -84.505, "type": "buoy" },
  { "id": "42043", "name": "TABS Buoy B", "lat": 28.982, "lon": -94.899, "type": "buoy" },
  { "id": "42044", "name": "TABS Buoy J", "lat": 26.191, "lon": -97.051, "type": "buoy" },
  { "id": "42045", "name": "TABS Buoy K", "lat": 26.217, "lon": -96.5, "type": "buoy" },
  { "id": "42050", "name": "TABS F", "lat": 28.842, "lon": -94.242, "type": "buoy" },
  { "id": "42057", "name": "Western Caribbean", "lat": 16.975, "lon": -81.578, "type": "buoy" },
  { "id": "42084", "name": "Southwest Pass LA", "lat": 28.988, "lon": -89.649, "type": "buoy" },
  { "id": "42085", "name": "Southeast of Ponce PR", "lat": 17.87, "lon": -66.537, "type": "buoy" },
  { "id": "42091", "name": "Trinity Shoal LA", "lat": 29.088, "lon": -92.505, "type": "buoy" },
  { "id": "42092", "name": "Aransas Pass TX", "lat": 27.639, "lon": -97.012, "type": "buoy" },
  { "id": "42095", "name": "Satan Shoal FL", "lat": 24.407, "lon": -81.968, "type": "buoy" },
  { "id": "42097", "name": "Pulley Ridge FL", "lat": 25.704, "lon": -83.654, "type": "buoy" },
  { "id": "42098", "name": "Egmont Channel FL", "lat": 27.59, "lon": -82.931, "type": "buoy" },
  { "id": "42099", "name": "Offshore St Petersburg FL", "lat": 27.352, "lon": -84.275, "type": "buoy" },
  { "id": "44005", "name": "Gulf of Maine", "lat": 43.201, "lon": -69.127, "type": "buoy" },
  { "id": "44007", "name": "Portland ME", "lat": 43.525, "lon": -70.14, "type": "buoy" },
  { "id": "44008", "name": "Nantucket", "lat": 40.5, "lon": -69.254, "type": "buoy" },
  { "id": "44009", "name": "Delaware Bay", "lat": 38.46, "lon": -74.692, "type": "buoy" },
  { "id": "44011", "name": "Georges Bank", "lat": 41.088, "lon": -66.546, "type": "buoy" },
  { "id": "44013", "name": "Boston", "lat": 42.346, "lon": -70.651, "type": "buoy" },
  { "id": "44014", "name": "Virginia Beach", "lat": 36.603, "lon": -74.837, "type": "buoy" },
  { "id": "44022", "name": "Execution Rocks", "lat": 40.883, "lon": -73.728, "type": "buoy" },
  { "id": "44024", "name": "Northeast Channel", "lat": 42.325, "lon": -65.909, "type": "buoy" },
  { "id": "44025", "name": "Long Island", "lat": 40.258, "lon": -73.175, "type": "buoy" },
  { "id": "44027", "name": "Jonesport ME", "lat": 44.284, "lon": -67.301, "type": "buoy" },
  { "id": "44029", "name": "Massachusetts Bay", "lat": 42.523, "lon": -70.566, "type": "buoy" },
  { "id": "44030", "name": "Western Maine Shelf", "lat": 43.179, "lon": -70.426, "type": "buoy" },
  { "id": "44032", "name": "Central Maine Shelf", "lat": 43.715, "lon": -69.355, "type": "buoy" },
  { "id": "44033", "name": "Penobscot Bay", "lat": 44.055, "lon": -68.996, "type": "buoy" },
  { "id": "44034", "name": "Eastern Maine Shelf", "lat": 44.103, "lon": -68.112, "type": "buoy" },
  { "id": "44037", "name": "Jordan Basin", "lat": 43.497, "lon": -67.876, "type": "buoy" },
  { "id": "44039", "name": "Central Long Island Sound", "lat": 41.138, "lon": -72.655, "type": "buoy" },
  { "id": "44040", "name": "Western Long Island Sound", "lat": 40.956, "lon": -73.58, "type": "buoy" },
  { "id": "44041", "name": "Jamestown VA", "lat": 37.211, "lon": -76.787, "type": "buoy" },
  { "id": "44042", "name": "Potomac MD", "lat": 38.033, "lon": -76.335, "type": "buoy" },
  { "id": "44056", "name": "Duck FRF NC", "lat": 36.2, "lon": -75.714, "type": "buoy" },
  { "id": "44058", "name": "Stingray Point VA", "lat": 37.567, "lon": -76.257, "type": "buoy" },
  { "id": "44062", "name": "Gooses Reef MD", "lat": 38.556, "lon": -76.415, "type": "buoy" },
  { "id": "44064", "name": "First Landing VA", "lat": 36.998, "lon": -76.087, "type": "buoy" },
  { "id": "44069", "name": "Great South Bay", "lat": 40.699, "lon": -73.087, "type": "buoy" },
  { "id": "44072", "name": "York Spit VA", "lat": 37.201, "lon": -76.266, "type": "buoy" },
  { "id": "44073", "name": "CO2 Gulf of Maine", "lat": 43.02, "lon": -70.54, "type": "buoy" },
  { "id": "44074", "name": "Great Bay NH", "lat": 43.07, "lon": -70.86, "type": "buoy" },
  { "id": "44078", "name": "OOI Irminger Sea", "lat": 59.94, "lon": -39.52, "type": "buoy" },
  { "id": "44079", "name": "OOI Pioneer Northern", "lat": 36.175, "lon": -74.827, "type": "buoy" },
  { "id": "44080", "name": "Baltimore MD", "lat": 39.223, "lon": -76.528, "type": "buoy" },
  { "id": "44084", "name": "Bethany Beach DE", "lat": 38.537, "lon": -75.044, "type": "buoy" },
  { "id": "44085", "name": "Buzzards Bay MA", "lat": 41.387, "lon": -71.032, "type": "buoy" },
  { "id": "44086", "name": "Nags Head NC", "lat": 36.001, "lon": -75.421, "type": "buoy" },
  { "id": "44087", "name": "Thimble Shoal VA", "lat": 37.045, "lon": -76.127, "type": "buoy" },
  { "id": "44088", "name": "Virginia Beach Offshore VA", "lat": 36.612, "lon": -74.839, "type": "buoy" },
  { "id": "44089", "name": "Wallops Island VA", "lat": 37.756, "lon": -75.325, "type": "buoy" },
  { "id": "44090", "name": "Cape Cod Bay MA", "lat": 41.84, "lon": -70.329, "type": "buoy" },
  { "id": "44091", "name": "Barnegat NJ", "lat": 39.772, "lon": -73.769, "type": "buoy" },
  { "id": "44095", "name": "Oregon Inlet NC", "lat": 35.75, "lon": -75.33, "type": "buoy" },
  { "id": "44097", "name": "Block Island RI", "lat": 40.967, "lon": -71.124, "type": "buoy" },
  { "id": "44098", "name": "Jeffreys Ledge NH", "lat": 42.8, "lon": -70.169, "type": "buoy" },
  { "id": "44099", "name": "Cape Henry VA", "lat": 36.915, "lon": -75.722, "type": "buoy" },
  { "id": "44100", "name": "Duck FRF 26m NC", "lat": 36.258, "lon": -75.593, "type": "buoy" },
  { "id": "45001", "name": "Mid-Superior", "lat": 48.064, "lon": -87.779, "type": "buoy" },
  { "id": "45002", "name": "North Michigan", "lat": 45.344, "lon": -86.411, "type": "buoy" },
  { "id": "45003", "name": "North Huron", "lat": 45.358, "lon": -82.841, "type": "buoy" },
  { "id": "45004", "name": "East Superior", "lat": 47.587, "lon": -86.587, "type": "buoy" },
  { "id": "45005", "name": "West Erie", "lat": 41.68, "lon": -82.398, "type": "buoy" },
  { "id": "45006", "name": "West Superior", "lat": 47.336, "lon": -89.795, "type": "buoy" },
  { "id": "45007", "name": "South Michigan", "lat": 42.68, "lon": -87.026, "type": "buoy" },
  { "id": "45008", "name": "South Huron", "lat": 44.283, "lon": -82.418, "type": "buoy" },
  { "id": "45012", "name": "Lake Ontario SW", "lat": 43.623, "lon": -77.408, "type": "buoy" },
  { "id": "45013", "name": "Atwater Park WI", "lat": 43.1, "lon": -87.85, "type": "buoy" },
  { "id": "45014", "name": "South Ontario", "lat": 43.367, "lon": -77.39, "type": "buoy" },
  { "id": "45022", "name": "Little Traverse Bay MI", "lat": 45.404, "lon": -85.088, "type": "buoy" },
  { "id": "45023", "name": "North Entry Keweenaw MI", "lat": 47.27, "lon": -88.607, "type": "buoy" },
  { "id": "45024", "name": "Ludington MI", "lat": 43.977, "lon": -86.56, "type": "buoy" },
  { "id": "45025", "name": "South Entry Keweenaw MI", "lat": 46.969, "lon": -88.398, "type": "buoy" },
  { "id": "45026", "name": "Cook Nuclear Plant MI", "lat": 41.982, "lon": -86.619, "type": "buoy" },
  { "id": "45027", "name": "McQuade Harbor MN", "lat": 46.86, "lon": -91.93, "type": "buoy" },
  { "id": "45028", "name": "Western Lake Superior", "lat": 46.814, "lon": -91.829, "type": "buoy" },
  { "id": "45029", "name": "Holland MI", "lat": 42.9, "lon": -86.272, "type": "buoy" },
  { "id": "45161", "name": "Muskegon MI", "lat": 43.185, "lon": -86.352, "type": "buoy" },
  { "id": "45162", "name": "Thunder Bay Alpena MI", "lat": 44.988, "lon": -83.269, "type": "buoy" },
  { "id": "45163", "name": "Saginaw Bay MI", "lat": 43.983, "lon": -83.599, "type": "buoy" },
  { "id": "45164", "name": "Cleveland OH", "lat": 41.748, "lon": -81.698, "type": "buoy" },
  { "id": "45165", "name": "Toledo Water Intake OH", "lat": 41.702, "lon": -83.261, "type": "buoy" },
  { "id": "45166", "name": "Lake Champlain Inland Sea", "lat": 44.785, "lon": -73.258, "type": "buoy" },
  { "id": "45167", "name": "Erie Nearshore PA", "lat": 42.185, "lon": -80.135, "type": "buoy" },
  { "id": "45168", "name": "South Haven MI", "lat": 42.397, "lon": -86.331, "type": "buoy" },
  { "id": "45170", "name": "Michigan City IN", "lat": 41.755, "lon": -86.968, "type": "buoy" },
  { "id": "45171", "name": "Granite Island MI", "lat": 46.724, "lon": -87.411, "type": "buoy" },
  { "id": "45172", "name": "Grand Marais MI", "lat": 46.74, "lon": -85.98, "type": "buoy" },
  { "id": "45173", "name": "Munising MI", "lat": 46.573, "lon": -86.572, "type": "buoy" },
  { "id": "45174", "name": "Wilmette IL", "lat": 42.135, "lon": -87.655, "type": "buoy" },
  { "id": "45175", "name": "Mackinac Straits West MI", "lat": 45.825, "lon": -84.772, "type": "buoy" },
  { "id": "45176", "name": "Cleveland Intake Crib OH", "lat": 41.55, "lon": -81.765, "type": "buoy" },
  { "id": "45183", "name": "Sleeping Bear Dunes MI", "lat": 44.982, "lon": -85.831, "type": "buoy" },
  { "id": "45186", "name": "Waukegan IL", "lat": 42.368, "lon": -87.795, "type": "buoy" },
  { "id": "45196", "name": "Rocky River OH", "lat": 41.521, "lon": -81.88, "type": "buoy" },
  { "id": "45197", "name": "Euclid OH", "lat": 41.619, "lon": -81.617, "type": "buoy" },
  { "id": "45198", "name": "Chicago IL", "lat": 41.892, "lon": -87.563, "type": "buoy" },
  { "id": "45200", "name": "Maumee Bay OH", "lat": 41.724, "lon": -83.37, "type": "buoy" },
  { "id": "45201", "name": "Erie Islands OH", "lat": 41.601, "lon": -82.781, "type": "buoy" },
  { "id": "45202", "name": "Port Clinton OH", "lat": 41.532, "lon": -82.941, "type": "buoy" },
  { "id": "45203", "name": "Huron OH", "lat": 41.393, "lon": -82.512, "type": "buoy" },
  { "id": "45207", "name": "Fairport Harbor OH", "lat": 41.725, "lon": -81.37, "type": "buoy" },
  { "id": "45208", "name": "Ashtabula OH", "lat": 41.908, "lon": -80.813, "type": "buoy" },
  { "id": "45209", "name": "Lakeport MI", "lat": 43.129, "lon": -82.391, "type": "buoy" },
  { "id": "45210", "name": "Rawley Point East WI", "lat": 44.055, "lon": -87.05, "type": "buoy" },
  { "id": "45211", "name": "Grand Island North MI", "lat": 46.973, "lon": -86.568, "type": "buoy" },
  { "id": "45215", "name": "Oswego NY", "lat": 43.501, "lon": -76.539, "type": "buoy" },
  { "id": "45218", "name": "Sheboygan WI", "lat": 43.731, "lon": -87.624, "type": "buoy" },
  { "id": "46001", "name": "Western Gulf of Alaska", "lat": 56.296, "lon": -148.027, "type": "buoy" },
  { "id": "46002", "name": "West Oregon", "lat": 42.56, "lon": -130.523, "type": "buoy" },
  { "id": "46005", "name": "West Washington", "lat": 46.143, "lon": -131.09, "type": "buoy" },
  { "id": "46011", "name": "Santa Maria", "lat": 34.937, "lon": -120.999, "type": "buoy" },
  { "id": "46012", "name": "Half Moon Bay", "lat": 37.356, "lon": -122.881, "type": "buoy" },
  { "id": "46013", "name": "Bodega Bay", "lat": 38.235, "lon": -123.317, "type": "buoy" },
  { "id": "46014", "name": "Pt Arena", "lat": 39.225, "lon": -123.98, "type": "buoy" },
  { "id": "46015", "name": "Port Orford", "lat": 42.754, "lon": -124.839, "type": "buoy" },
  { "id": "46022", "name": "Eel River", "lat": 40.716, "lon": -124.54, "type": "buoy" },
  { "id": "46025", "name": "Santa Monica Basin", "lat": 33.755, "lon": -119.045, "type": "buoy" },
  { "id": "46026", "name": "San Francisco", "lat": 37.75, "lon": -122.838, "type": "buoy" },
  { "id": "46027", "name": "St Georges", "lat": 41.84, "lon": -124.382, "type": "buoy" },
  { "id": "46028", "name": "Cape San Martin", "lat": 35.77, "lon": -121.903, "type": "buoy" },
  { "id": "46029", "name": "Columbia River Bar", "lat": 46.148, "lon": -124.508, "type": "buoy" },
  { "id": "46035", "name": "Central Bering Sea", "lat": 57.034, "lon": -177.468, "type": "buoy" },
  { "id": "46041", "name": "Cape Elizabeth", "lat": 47.352, "lon": -124.739, "type": "buoy" },
  { "id": "46042", "name": "Monterey", "lat": 36.785, "lon": -122.396, "type": "buoy" },
  { "id": "46047", "name": "Tanner Bank", "lat": 32.418, "lon": -119.535, "type": "buoy" },
  { "id": "46050", "name": "Stonewall Bank", "lat": 44.679, "lon": -124.535, "type": "buoy" },
  { "id": "46053", "name": "East Santa Barbara", "lat": 34.241, "lon": -119.839, "type": "buoy" },
  { "id": "46054", "name": "West Santa Barbara", "lat": 34.274, "lon": -120.468, "type": "buoy" },
  { "id": "46059", "name": "West California", "lat": 38.067, "lon": -129.895, "type": "buoy" },
  { "id": "46060", "name": "West Orca Bay", "lat": 60.571, "lon": -146.795, "type": "buoy" },
  { "id": "46061", "name": "Seal Rocks", "lat": 60.23, "lon": -146.837, "type": "buoy" },
  { "id": "46066", "name": "South Kodiak", "lat": 52.776, "lon": -154.992, "type": "buoy" },
  { "id": "46069", "name": "South Santa Rosa", "lat": 33.677, "lon": -120.213, "type": "buoy" },
  { "id": "46070", "name": "Southwest Bering Sea", "lat": 55.048, "lon": 175.246, "type": "buoy" },
  { "id": "46071", "name": "Western Aleutians", "lat": 51.04, "lon": 179.764, "type": "buoy" },
  { "id": "46072", "name": "Central Aleutians", "lat": 51.645, "lon": -172.145, "type": "buoy" },
  { "id": "46073", "name": "Southeast Bering Sea", "lat": 55.008, "lon": -172.012, "type": "buoy" },
  { "id": "46075", "name": "Shumagin Islands", "lat": 53.969, "lon": -160.794, "type": "buoy" },
  { "id": "46076", "name": "Cape Cleare", "lat": 59.508, "lon": -148.005, "type": "buoy" },
  { "id": "46077", "name": "Shelikof Strait", "lat": 57.869, "lon": -154.211, "type": "buoy" },
  { "id": "46078", "name": "Albatross Bank", "lat": 55.561, "lon": -152.599, "type": "buoy" },
  { "id": "46080", "name": "Portlock Bank", "lat": 57.91, "lon": -150.129, "type": "buoy" },
  { "id": "46081", "name": "Western Prince William Sound", "lat": 60.802, "lon": -148.283, "type": "buoy" },
  { "id": "46082", "name": "Cape Suckling", "lat": 59.67, "lon": -143.353, "type": "buoy" },
  { "id": "46083", "name": "Fairweather Ground", "lat": 58.276, "lon": -138.024, "type": "buoy" },
  { "id": "46084", "name": "Cape Edgecumbe", "lat": 56.614, "lon": -136.04, "type": "buoy" },
  { "id": "46085", "name": "Central Gulf of Alaska", "lat": 55.84, "lon": -142.895, "type": "buoy" },
  { "id": "46086", "name": "San Clemente Basin", "lat": 32.504, "lon": -118.029, "type": "buoy" },
  { "id": "46087", "name": "Neah Bay", "lat": 48.493, "lon": -124.727, "type": "buoy" },
  { "id": "46088", "name": "New Dungeness", "lat": 48.332, "lon": -123.179, "type": "buoy" },
  { "id": "46089", "name": "Tillamook", "lat": 45.928, "lon": -125.815, "type": "buoy" },
  { "id": "46097", "name": "OOI Newport Shelf OR", "lat": 44.639, "lon": -124.304, "type": "buoy" },
  { "id": "46098", "name": "OOI Waldport Offshore OR", "lat": 44.378, "lon": -124.947, "type": "buoy" },
  { "id": "46099", "name": "OOI Westport Shelf WA", "lat": 46.988, "lon": -124.567, "type": "buoy" },
  { "id": "46108", "name": "Lower Cook Inlet", "lat": 59.598, "lon": -151.828, "type": "buoy" },
  { "id": "46211", "name": "Grays Harbor", "lat": 46.857, "lon": -124.243, "type": "buoy" },
  { "id": "46213", "name": "Cape Mendocino", "lat": 40.292, "lon": -124.748, "type": "buoy" },
  { "id": "46214", "name": "Point Reyes", "lat": 37.944, "lon": -123.466, "type": "buoy" },
  { "id": "46215", "name": "Diablo Canyon", "lat": 35.204, "lon": -120.859, "type": "buoy" },
  { "id": "46218", "name": "Harvest", "lat": 34.452, "lon": -120.78, "type": "buoy" },
  { "id": "46219", "name": "San Nicolas Island", "lat": 33.226, "lon": -119.891, "type": "buoy" },
  { "id": "46221", "name": "Santa Monica Bay", "lat": 33.86, "lon": -118.641, "type": "buoy" },
  { "id": "46222", "name": "San Pedro", "lat": 33.614, "lon": -118.314, "type": "buoy" },
  { "id": "46224", "name": "Oceanside Offshore", "lat": 33.178, "lon": -117.472, "type": "buoy" },
  { "id": "46225", "name": "Torrey Pines Outer", "lat": 32.933, "lon": -117.391, "type": "buoy" },
  { "id": "46229", "name": "Umpqua Offshore", "lat": 43.772, "lon": -124.549, "type": "buoy" },
  { "id": "46232", "name": "Point Loma South", "lat": 32.517, "lon": -117.425, "type": "buoy" },
  { "id": "46235", "name": "Imperial Beach Nearshore CA", "lat": 32.57, "lon": -117.169, "type": "buoy" },
  { "id": "46236", "name": "Monterey Canyon Outer CA", "lat": 36.759, "lon": -121.95, "type": "buoy" },
  { "id": "46237", "name": "San Francisco Bar", "lat": 37.788, "lon": -122.634, "type": "buoy" },
  { "id": "46239", "name": "Point Sur", "lat": 36.342, "lon": -122.11, "type": "buoy" },
  { "id": "46240", "name": "Cabrillo Point Monterey Bay CA", "lat": 36.626, "lon": -121.907, "type": "buoy" },
  { "id": "46243", "name": "Clatsop Spit", "lat": 46.215, "lon": -124.129, "type": "buoy" },
  { "id": "46244", "name": "Humboldt Bay", "lat": 40.896, "lon": -124.358, "type": "buoy" },
  { "id": "46248", "name": "Astoria Canyon", "lat": 46.133, "lon": -124.64, "type": "buoy" },
  { "id": "46251", "name": "Santa Cruz Basin CA", "lat": 33.769, "lon": -119.565, "type": "buoy" },
  { "id": "46253", "name": "San Pedro South CA", "lat": 33.576, "lon": -118.181, "type": "buoy" },
  { "id": "46254", "name": "SCRIPPS Nearshore", "lat": 32.868, "lon": -117.267, "type": "buoy" },
  { "id": "46256", "name": "Long Beach Channel CA", "lat": 33.7, "lon": -118.201, "type": "buoy" },
  { "id": "46259", "name": "Santa Lucia Escarpment CA", "lat": 34.774, "lon": -121.491, "type": "buoy" },
  { "id": "46265", "name": "Nome AK", "lat": 64.474, "lon": -165.479, "type": "buoy" },
  { "id": "46266", "name": "Del Mar Nearshore", "lat": 32.957, "lon": -117.279, "type": "buoy" },
  { "id": "46267", "name": "Angeles Point", "lat": 48.173, "lon": -123.607, "type": "buoy" },
  { "id": "46268", "name": "Topanga Nearshore CA", "lat": 34.022, "lon": -118.578, "type": "buoy" },
  { "id": "46273", "name": "Torrey Pines Inner CA", "lat": 32.93, "lon": -117.274, "type": "buoy" },
  { "id": "46274", "name": "Leucadia Nearshore CA", "lat": 33.062, "lon": -117.314, "type": "buoy" },
  { "id": "46275", "name": "Red Beach Nearshore CA", "lat": 33.291, "lon": -117.501, "type": "buoy" },
  { "id": "46276", "name": "Pajaro Beach CA", "lat": 36.845, "lon": -121.825, "type": "buoy" },
  { "id": "46277", "name": "Green Beach Offshore CA", "lat": 33.336, "lon": -117.659, "type": "buoy" },
  { "id": "46278", "name": "Tillamook Bay South", "lat": 45.561, "lon": -123.991, "type": "buoy" },
  { "id": "46280", "name": "Newport PWS North OR", "lat": 44.575, "lon": -124.234, "type": "buoy" },
  { "id": "46281", "name": "Newport PWS South OR", "lat": 44.559, "lon": -124.233, "type": "buoy" },
  { "id": "51000", "name": "Northern Hawaii One", "lat": 23.534, "lon": -153.752, "type": "buoy" },
  { "id": "CARO3", "name": "Cape Arago OR", "lat": 43.342, "lon": -124.376, "type": "land" },
  { "id": "DESW1", "name": "Destruction Island WA", "lat": 47.675, "lon": -124.487, "type": "land" },
  { "id": "LONW1", "name": "Long Beach WA", "lat": 46.352, "lon": -124.054, "type": "land" },
  { "id": "NWPO3", "name": "Newport OR", "lat": 44.612, "lon": -124.068, "type": "land" },
  { "id": "PORO3", "name": "Port Orford OR", "lat": 42.739, "lon": -124.497, "type": "land" },
  { "id": "PTWW1", "name": "Port Townsend WA", "lat": 48.116, "lon": -122.76, "type": "land" },
  { "id": "SISW1", "name": "Smith Island WA", "lat": 48.318, "lon": -122.844, "type": "land" },
  { "id": "TTIW1", "name": "Tatoosh Island WA", "lat": 48.392, "lon": -124.736, "type": "land" },
  { "id": "WPOW1", "name": "Westport WA", "lat": 46.904, "lon": -124.105, "type": "land" }
]
